[
    {
        "idLocal": 1,
        "id": "32fd3740-438d-11ef-8e8d-b55568dc8e66",
        "nombre": "Metepec",
        "municipio": "Metepec",
        "delegacion": "Delegación Regional III. Metepec",
        "latitud": 19.24120,
        "longitud": -99.58745,
        "activa": true
    },
        {
        "idLocal": 2,
        "id": "2f92bc10-438d-11ef-8e8d-b55568dc8e66",
        "nombre": "Toluca",
        "municipio": "Toluca de Lerdo",
        "delegacion": "Delegación Regional III. Metepec",
        "latitud": 19.40016,
        "longitud": -99.71324,
        "activa": true
    },
        {
        "idLocal": 3,
        "id": "2ae00970-438d-11ef-8e8d-b55568dc8e66",
        "nombre": "Valle de Bravo Centro",
        "municipio": "Valle de Bravo",
        "delegacion": "Delegación Regional IV. Valle de Bravo",
        "latitud": 19.23849,
        "longitud": -100.13138,
        "activa": true
    },
        {
        "idLocal": 4,
        "id": "2b20e300-438d-11ef-8e8d-b55568dc8e66",
        "nombre": "Tejupilco",
        "municipio": "Tejupilco",
        "delegacion": "Delegación Regional V. Tejupilco",
        "latitud": 18.89160,
        "longitud": -100.14264,
        "activa": true
    },
        {
        "idLocal": 5,
        "id": "2c6f34f0-438d-11ef-8e8d-b55568dc8e66",
        "nombre": "Amatepec",
        "municipio": "Amatepec",
        "delegacion": "Delegación Regional V. Tejupilco",
        "latitud": 18.6779,
        "longitud": -100.10002,
        "activa": true
    },
        {
        "idLocal": 6,
        "id": "2d107e00-438d-11ef-8e8d-b55568dc8e66",
        "nombre": "Cuautitlán Izcalli",
        "municipio": "Cuautitlán Izcalli",
        "delegacion": "Delegación Regional VII. Cuautitlán Izcalli",
        "latitud": 19.63552,
        "longitud": -99.19546,
        "activa": true
    },
        {
        "idLocal": 7,
        "id": "2568a740-438d-11ef-8e8d-b55568dc8e66",
        "nombre": "Coacalco de Berriozábal",
        "municipio": "Coacalco de Berriozábal",
        "delegacion": "Delegación Regional VII. Cuautitlán Izcalli",
        "latitud": 19.64776,
        "longitud": -99.09537,
        "activa": true
    },
        {
        "idLocal": 8,
        "id": "34e07631-438d-11ef-8e8d-b55568dc8e66",
        "nombre": "Zumpango",
        "municipio": "Zumpango",
        "delegacion": "Delegación Regional VIII. Zumpango",
        "latitud": 19.79053,
        "longitud": -99.06810,
        "activa": true
    },
        {
        "idLocal": 9,
        "id": "217a07f0-438d-11ef-8e8d-b55568dc8e66",
        "nombre": "Teotihuacán",
        "municipio": "Teotihuacán",
        "delegacion": "Delegación Regional IX. Teotihuacán",
        "latitud": 19.67220,
        "longitud": -98.84313,
        "activa": true
    },
        {
        "idLocal": 10,
        "id": "2f82dd90-438d-11ef-8e8d-b55568dc8e66",
        "nombre": "Valle de Chalco Solidaridad",
        "municipio": "Valle de Chalco Solidaridad",
        "delegacion": "Delegación Regional XI. Amecameca",
        "latitud": 19.27786,
        "longitud": -98.95637,
        "activa": true
    },
        {
        "idLocal": 11,
        "id": "30da7e50-438d-11ef-8e8d-b55568dc8e66",
        "nombre": "Tlatlaya",
        "municipio": "Tlatlaya",
        "delegacion": "Delegación Regional V. Tejupilco",
        "latitud": 18.40901,
        "longitud": -100.28320,
        "activa": true
    },
        {
        "idLocal": 12,
        "id": "2b5d9de0-438d-11ef-8e8d-b55568dc8e66",
        "nombre": "Tenancingo",
        "municipio": "Tenancingo",
        "delegacion": "Delegación Regional VI. Tenancingo",
        "latitud": 18.96261,
        "longitud": -99.59945,
        "activa": true
    },
        {
        "idLocal": 13,
        "id": "22e530b0-438d-11ef-8e8d-b55568dc8e66",
        "nombre": "Valle de Bravo",
        "municipio": "Valle de Bravo",
        "delegacion": "Delegación Regional IV. Valle de Bravo",
        "latitud": 19.23482,
        "longitud": -100.08221,
        "activa": true
    },
        {
        "idLocal": 14,
        "id": "32ff0c00-438d-11ef-8e8d-b55568dc8e66",
        "nombre": "San Felipe del Progreso",
        "municipio": "San Felipe del Progreso",
        "delegacion": "Delegación Regional I. Atlacomulco",
        "latitud": 19.71373,
        "longitud": -99.93952,
        "activa": true
    },
        {
        "idLocal": 15,
        "id": "2cf729a0-438d-11ef-8e8d-b55568dc8e66",
        "nombre": "Atlacomulco",
        "municipio": "Atlacomulco",
        "delegacion": "Delegación Regional I. Atlacomulco",
        "latitud": 19.78128,
        "longitud": -99.90112,
        "activa": true
    },
        {
        "idLocal": 16,
        "id": "356f6fc0-438d-11ef-8e8d-b55568dc8e66",
        "nombre": "Jilotepec",
        "municipio": "Jilotepec",
        "delegacion": "Delegación Regional II. Jilotepec",
        "latitud": 19.95345,
        "longitud": -99.54285,
        "activa": true
    },
        {
        "idLocal": 17,
        "id": "2bbad910-438d-11ef-8e8d-b55568dc8e66",
        "nombre": "Tequixquiac",
        "municipio": "Tequixquiac",
        "delegacion": "Delegación Regional VIII. Zumpango",
        "latitud": 19.90586,
        "longitud": -99.15548,
        "activa": true
    },
        {
        "idLocal": 18,
        "id": "28411ba0-438d-11ef-8e8d-b55568dc8e66",
        "nombre": "Juchitepec",
        "municipio": "Juchitepec",
        "delegacion": "Delegación Regional XI. Amecameca",
        "latitud": 19.09621,
        "longitud": -98.88199,
        "activa": true
    },
        {
        "idLocal": 19,
        "id": "2b0d33f0-438d-11ef-8e8d-b55568dc8e66",
        "nombre": "Tepetlixpa",
        "municipio": "Tepetlixpa",
        "delegacion": "Delegación Regional XI. Amecameca",
        "latitud": 19.01727,
        "longitud": -98.82161,
        "activa": true
    },
        {
        "idLocal": 20,
        "id": "2d271340-438d-11ef-8e8d-b55568dc8e66",
        "nombre": "Ocoyoacac",
        "municipio": "Ocoyoacac",
        "delegacion": "Delegación Regional III. Metepec",
        "latitud": 19.26342,
        "longitud": -99.48535,
        "activa": true
    },
        {
        "idLocal": 21,
        "id": "0b893240-7114-11ef-aec8-4dd523f9b3d4",
        "nombre": "Texcoco",
        "municipio": "Texcoco de Mora",
        "delegacion": "Delegación Regional X. Texcoco",
        "latitud": 19.50128,
        "longitud": -98.86292,
        "activa": true
    },
        {
        "idLocal": 22,
        "id": "215a4af0-438d-11ef-8e8d-b55568dc8e66",
        "nombre": "Lerma",
        "municipio": "Lerma",
        "delegacion": "Delegación Regional III. Metepec",
        "latitud": 19.34138,
        "longitud": -99.4966,
        "activa": true
    },
        {
        "idLocal": 23,
        "id": "20e9aed0-438d-11ef-8e8d-b55568dc8e66",
        "nombre": "Villa de Allende",
        "municipio": "Villa de Allende",
        "delegacion": "Delegación Regional IV. Valle de Bravo",
        "latitud": 19.37609,
        "longitud": -100.14395,
        "activa": true
    },
        {
        "idLocal": 24,
        "id": "215b8370-438d-11ef-8e8d-b55568dc8e66",
        "nombre": "Tlazala de Fabela",
        "municipio": "Isidro Fabela",
        "delegacion": "Delegación Regional VII. Cuautitlán Izcalli",
        "latitud": 19.56201,
        "longitud": -99.41089,
        "activa": true
    },
        {
        "idLocal": 25,
        "id": "2e43f4f1-438d-11ef-8e8d-b55568dc8e66",
        "nombre": "Toluca Centro",
        "municipio": "Toluca",
        "delegacion": "Delegación Regional III. Metepec",
        "latitud": 19.27831,
        "longitud": -99.66688,
        "activa": true
    },
          {
        "idLocal": 26,
        "id": "259d4bd0-438d-11ef-8e8d-b55568dc8e66",
        "nombre": "Texcoco Centro",
        "municipio": "Texcoco de Mora",
        "delegacion": "Delegación Regional X. Texcoco",
        "latitud": 19.50663,
        "longitud": -98.89135,
        "activa": true
    }
]